RSSI;ID;COUNT;TIMER;Vbat;Text;Tint;Ax;Ay;Az;Atot;Atot_mps;Gx;Gy;Gz;Mx;My;Mz;Mtot;Roll;Pitch;Heading;Pressure;Height;Vertical_velocity;Vertical_accelration;Vertical_acc_g;Non_grav_force
-63;TRIDENT;1024;470.37;4.06;35.65;38.04;0.09;1;0.17;1.02;10.0062;2.89;19.33;1.15;-155.04;60.28;-328.67;368.36;89.79;0.43;86.27;101.07;0;;;;
-62;TRIDENT;1025;470.83;4.06;35.65;38.04;0.08;1;0.16;1.01;9.9081;-0.35;14.69;-1.53;-155.19;59.53;-328.22;367.9;89.8;0.65;86.1;101.07;0;0;0;0;9.81
-62;TRIDENT;1026;471.29;4.06;35.65;38.05;0.09;1;0.17;1.02;10.0062;-2.14;11.8;-3.73;-154.89;60.43;-327.32;367.12;90.05;0.7;86.2;101.07;0;0;0;0;9.81
-62;TRIDENT;1027;471.75;4.06;35.65;38.05;0.08;1;0.18;1.01;9.9081;3.79;-4.82;-5.05;-155.04;60.28;-328.07;367.83;90.2;0.74;86.5;101.07;0;0;0;0;9.81
-65;TRIDENT;1028;472.21;4.06;35.68;38.06;0.09;1;0.17;1.01;9.9081;5.66;-7.92;-2.49;-154.89;59.53;-328.52;368.04;90.11;0.75;86.52;101.07;0;0;0;0;9.81
-62;TRIDENT;1029;472.66;4.06;35.65;38.06;0.08;1;0.17;1.01;9.9081;0.64;-12.84;-0.87;-153.84;61.47;-326.87;366.45;90.21;0.56;86.65;101.07;0;0;0;0;9.81
-63;TRIDENT;1030;473.12;4.06;35.65;38.07;0.09;1;0.17;1.02;10.0062;-0.35;5.62;-6.49;-156.39;60.13;-329.12;369.31;90.21;0.09;86.19;101.07;0;0;0;0;9.81
-64;TRIDENT;1031;473.58;4.06;35.68;38.06;0.08;1;0.16;1.01;9.9081;3.33;6.08;4.09;-154.44;59.98;-327.77;367.26;90.11;0.18;87.13;101.07;0;0;0;0;9.81
-62;TRIDENT;1032;474.04;4.06;35.65;38.06;0.09;1;0.17;1.01;9.9081;-3.48;9.37;0.47;-155.49;61.33;-328.52;368.59;90.28;-0.03;87.04;101.07;0;0;0;0;9.81
-62;TRIDENT;1033;474.5;4.06;35.68;38.07;0.08;1;0.17;1.01;9.9081;1.08;-11.85;-6.78;-154.14;60.88;-326.27;365.94;89.96;0.11;87.07;101.07;0;0;0;0;9.81
-61;TRIDENT;1034;474.95;4.06;35.68;38.07;0.09;0.99;0.17;1.01;9.9081;1.27;28.5;6.96;-154.74;60.88;-328.07;367.8;89.93;0.18;86.3;101.07;0;0;0;0;9.81
-62;TRIDENT;1035;475.41;4.06;35.68;38.07;0.09;1;0.17;1.02;10.0062;5.57;-5.11;-0.58;-153.84;60.28;-327.77;367.06;89.73;0.08;86.28;101.07;0;0;0;0;9.81
-65;TRIDENT;1036;475.87;4.06;35.68;38.07;0.09;1;0.16;1.02;10.0062;-0.43;9.86;-1.53;-153.84;60.58;-328.37;367.64;89.73;0.42;86.53;101.07;0;0;0;0;9.81
-62;TRIDENT;1037;476.33;4.06;35.68;38.07;0.08;1;0.18;1.02;10.0062;0.64;-2.21;3.62;-154.89;59.53;-327.62;367.24;89.76;0.41;86.2;101.07;0;0;0;0;9.81
-62;TRIDENT;1038;476.79;4.06;35.68;38.09;0.09;1;0.18;1.02;10.0062;5.92;2.14;1.24;-153.54;59.98;-327.77;366.88;89.58;0.52;86.38;101.07;0;0;0;0;9.81
-62;TRIDENT;1039;477.25;4.06;35.7;38.08;0.09;1;0.17;1.02;10.0062;-0.43;22.15;-1.63;-155.04;60.58;-327.47;367.34;89.59;0.75;86.41;101.07;0;0;0;0;9.81
-62;TRIDENT;1040;477.7;4.06;35.68;38.09;0.09;1;0.17;1.02;10.0062;-3.39;-0.76;-0.29;-154.89;61.03;-328.82;368.56;89.75;0.62;86.11;101.07;0;0;0;0;9.81
-64;TRIDENT;1041;478.16;4.06;35.68;38.1;0.08;1;0.17;1.02;10.0062;3.6;8.5;-2.49;-154.74;59.68;-327.77;367.34;89.95;0.66;86.43;101.07;0;0;0;0;9.81
-62;TRIDENT;1042;478.62;4.06;35.68;38.1;0.08;1;0.17;1.02;10.0062;3.24;-19.01;-4.29;-154.59;60.13;-327.02;366.68;89.93;0.87;86.71;101.07;0;0;0;0;9.81
-67;TRIDENT;1043;479.08;4.06;35.68;38.09;0.09;1;0.18;1.02;10.0062;-1.24;7.54;0.09;-154.44;60.58;-328.07;367.62;90.02;0.85;87.38;101.07;0;0;0;0;9.81
-54;TRIDENT;1044;479.54;4.06;35.7;38.1;1.33;8;2.32;8.43;82.6983;17.31;42.72;24.41;-154.74;60.88;-325.07;365.13;90.08;0.8;88.19;100.9;15.2115653;33.06862022;71.88830483;7.328063694;6.724310112
-62;TRIDENT;1045;480;4.06;35.7;38.08;1.43;8;0.88;8.17;80.1477;7.27;1.94;18.6;-141.39;68.82;-306.03;344.06;90.37;-0.58;91.7;101.04;2.682887544;-27.236256;-131.097557;-13.36366534;39.96243811
-63;TRIDENT;1046;480.45;4.06;35.7;38.09;0.44;8;0.88;8.06;79.0686;1.08;-79.37;-17.27;-144.84;59.38;-312.77;349.76;91.13;-2;90.63;101.46;-34.81898695;-83.33749887;-124.6694286;-12.70840251;38.48396858
-65;TRIDENT;1047;480.91;4.06;35.7;38.09;-0.58;-1.3;0;1.42;13.9302;-1.51;-37.97;-12.21;-150.69;53.23;-346.51;381.59;91.19;-0.66;86.93;101.47;-35.71035532;-1.937757338;176.9559598;18.03832414;30.88987076
-68;TRIDENT;1048;481.37;4.06;35.7;38.1;-1.01;-1.14;-0.15;1.53;15.0093;3.86;-53.88;-11.16;-152.34;54.58;-352.66;388.01;91.18;-0.17;85.95;100.62;40.31121181;165.2642764;363.482682;37.05226116;73.79101686
-70;TRIDENT;1049;481.83;4.06;35.7;38.11;-0.8;-1.07;-0.11;1.34;13.1454;-7.88;-34.09;6.67;-152.49;56.53;-357.3;392.57;91.43;0.34;83.96;99.74;119.5657894;172.2925599;15.27887727;1.557479844;6.295858228
-73;TRIDENT;1050;482.29;4.06;35.75;38.1;-0.55;-0.81;0.03;0.98;9.6138;9.6;-29.56;4.09;-151.59;59.53;-362.1;397.04;91.3;0.31;83.31;98.91;194.8694286;163.7035635;-18.67173141;-1.903336536;14.10449823
-78;TRIDENT;1051;482.74;4.06;35.7;38.1;-0.42;-0.78;-0.07;0.88;8.6328;-1.79;-3.45;-5.05;-150.84;65.07;-367.35;402.41;91.51;0.92;82.68;98.22;257.8038447;139.854258;-52.99845653;-5.40249302;21.999645
-80;TRIDENT;1052;483.2;4.06;35.7;38.1;-0.34;-0.73;-0.07;0.81;7.9461;-0.61;-22.21;9.82;-151.29;68.82;-369.9;405.52;91.39;0.94;81.26;97.53;321.1290329;137.6634527;-4.76262034;-0.485486273;10.90540268
-85;TRIDENT;1053;483.66;4.06;35.7;38.11;-0.38;-0.61;-0.08;0.72;7.0632;4.23;-46.56;2.95;-151.29;73.62;-371.7;408;91.03;0.9;81.3;96.91;378.3401392;124.3719701;-28.8945274;-2.945415638;16.4557413
-81;TRIDENT;1054;484.12;4.06;35.7;38.11;-0.43;-0.52;-0.06;0.68;6.6708;0.55;-0.47;0.09;-151.14;78.27;-373.05;410.04;91.2;0.61;81.54;96.39;426.5526462;104.8097978;-42.52646145;-4.335011361;19.59108613
-90;TRIDENT;1055;484.58;4.06;35.7;38.11;-0.37;-0.5;-0.09;0.63;6.1803;0.2;-13.42;7.91;-150.84;83.07;-374.25;411.96;91.53;0.48;80.28;95.88;474.0430126;103.2399271;-3.412762466;-0.347886082;10.59493537
-91;TRIDENT;1056;485.04;4.06;35.7;38.11;-0.37;-0.42;-0.08;0.57;5.5917;6.11;5.4;4.95;-150.39;84.12;-374.1;411.88;;;80.5;95.42;517.0532469;93.50050934;-21.17264725;-2.158271891;14.67970887
-86;TRIDENT;1057;485.49;4.06;35.7;38.12;-0.33;-0.37;-0.12;0.52;5.1012;3.95;-48.21;-1.44;-149.19;83.22;-375;412.07;91.75;0.51;79.72;95.05;551.7704475;77.14933471;-36.33594363;-3.703969789;18.16726703
-86;TRIDENT;1058;485.95;4.06;35.7;38.12;-0.25;-0.32;-0.12;0.42;4.1202;4.67;-24.53;4.09;-150.99;88.31;-374.1;412.97;92.23;0.58;79.32;94.68;586.5972598;75.71046149;-3.127985262;-0.318856805;10.52943661
-83;TRIDENT;1059;486.41;4.06;35.73;38.12;-0.16;-0.28;-0.09;0.34;3.3354;1.18;-4.24;0.66;-147.69;91.01;-373.8;412.09;92.3;0.54;77.38;94.35;617.812125;67.85840258;-17.06969327;-1.740029895;13.73602945
-82;TRIDENT;1060;486.87;4.06;35.73;38.12;-0.1;-0.26;0.02;0.28;2.7468;-0.89;-19.71;-1.63;-146.19;95.21;-373.2;411.96;92.66;0.35;77.87;94.04;647.1621481;63.80439802;-8.813053385;-0.898374453;11.83700228
-80;TRIDENT;1061;487.33;4.06;35.73;38.13;-0.09;-0.22;-0.02;0.23;2.2563;7.82;13.82;2.09;-145.44;98.96;-371.25;410.82;92.81;0.44;78.08;93.8;669.9386033;49.51403311;-31.06601069;-3.166769693;16.95518246
-78;TRIDENT;1062;487.79;4.06;35.73;38.13;-0.17;-0.19;-0.08;0.27;2.6487;11.31;1.07;1.15;-143.34;101.66;-370.05;409.66;92.95;0.3;77.44;93.55;693.7143156;51.68633104;4.722386808;0.481384996;8.723851034
-78;TRIDENT;1063;488.24;4.06;35.73;38.13;-0.1;-0.15;0.02;0.18;1.7658;7.98;-11.98;1.33;-141.39;106.01;-368.4;408.59;93.39;0.5;77.12;93.34;713.7257092;44.46976356;-16.03681663;-1.634741757;13.49846783
-78;TRIDENT;1064;488.7;4.06;35.73;38.13;-0.13;-0.14;-0.02;0.19;1.8639;12.92;-19.71;-9.54;-140.64;108.26;-365.85;406.63;93.48;0.59;77.71;93.17;729.9521298;35.27482736;-19.98899173;-2.037613836;14.4074681
-77;TRIDENT;1065;489.16;4.06;35.73;38.15;-0.09;-0.12;-0.06;0.16;1.5696;3.33;-25.88;-4.58;-138.39;110.8;-364.8;405.6;93.95;0.95;76.66;93.01;745.2459715;33.24748205;-4.407272405;-0.449263242;10.82367265
-76;TRIDENT;1066;489.62;4.06;35.73;38.13;-0.07;-0.11;-0.03;0.14;1.3734;12.75;-41.25;-6.49;-134.2;114.1;-360.6;401.33;94.15;1.18;76.04;92.87;758.6455698;29.12956145;-8.952001298;-0.912538359;11.8689603
-72;TRIDENT;1067;490.08;4.06;35.73;38.15;-0.07;-0.1;-0.02;0.12;1.1772;3.95;10.52;-12.6;-132.4;115;;398.83;94.56;1.85;75.36;92.76;769.1853057;22.91246944;-13.51541743;-1.377718392;12.91854601
-73;TRIDENT;1068;490.54;4.07;35.75;38.14;0.1;1.82;0.94;2.05;20.1105;250.13;90.24;-2;-110.8;38.53;-322.52;343.19;94.83;2.37;74.59;92.2;823.0528919;117.1034483;204.7629974;20.87288455;37.28548941
-81;TRIDENT;1069;490.99;4.06;35.7;38.12;-0.19;1.95;0.63;2.06;20.2086;35.15;-27.04;-3.91;-113.5;93.11;-363;391.57;104.76;1.7;79.58;92.45;798.8651522;-53.75053272;-379.6755133;-38.70290655;97.13536806
-82;TRIDENT;1070;491.45;4.06;35.63;38.11;-0.05;1.27;0.38;1.33;13.0473;-77.16;250.13;73.71;-144.69;55.63;-325.82;360.81;107.66;2.22;78.08;92.48;795.8017441;-6.65958296;102.3716299;10.43543628;13.73547488
-75;TRIDENT;1071;491.91;4.06;35.56;38.11;-0.01;0.91;0.27;0.95;9.3195;34.79;212.55;250.13;-122.2;57.13;-297.93;327.04;103.55;-3.93;86.5;92.49;794.6609404;-2.480007942;9.086032647;0.926201085;7.720212491
-72;TRIDENT;1072;492.37;4.06;35.46;38.1;0.07;1.28;0.44;1.36;13.3416;34.79;160.58;250.13;-118.3;63.42;-293.13;322.4;104.03;-15.58;92.2;92.52;791.5237751;-6.819924617;-9.434601469;-0.961733075;11.97995834
-70;TRIDENT;1073;492.83;4.06;35.39;38.11;-0.03;1.22;0.37;1.28;12.5568;-48.75;233.24;250.13;-133.45;86.36;-309.47;347.91;104.11;-26.5;96;92.56;787.5066164;-8.732953745;-4.158758973;-0.423930578;10.76651456
-69;TRIDENT;1074;493.29;4.06;35.31;38.11;-0.07;1.25;0.41;1.32;12.9492;-157.3;151.01;250.13;-115.9;74.52;-293.73;324.44;96.86;-37.79;105.23;92.59;784.4258376;-6.697345173;4.425236025;0.451094396;8.792195714
-67;TRIDENT;1075;493.74;4.06;35.22;38.11;0;1.28;0.46;1.36;13.3416;-86.66;154.38;250.13;-128.5;92.21;-307.82;346.08;85.78;-47.5;112.27;92.63;780.3638038;-9.026741637;-5.176436585;-0.527669377;11.00058041
-69;TRIDENT;1076;494.2;4.06;35.14;38.11;-0.03;1.46;0.49;1.54;15.1074;-149.94;196.32;250.13;-119.05;63.87;-294.18;323.72;72.92;-55.89;124.04;92.67;776.3305292;-8.767988354;0.562507137;0.057340177;9.680623359
-71;TRIDENT;1077;494.66;4.06;35.05;38.11;0;1.2;0.4;1.27;12.4587;-79.76;168.5;250.13;-125.05;94.76;-309.47;346.97;50.61;-61.52;143.01;92.71;772.2755236;-8.815229649;-0.102698468;-0.010468753;9.833620648
-66;TRIDENT;1078;495.12;4.06;34.97;38.12;-0.02;1.47;0.48;1.55;15.2055;-113.91;226.37;250.13;-117.25;66.87;-292.98;322.58;25.05;-61.69;168.38;92.74;769.2054086;-6.67416305;4.654492606;0.474464078;8.739466701
-70;TRIDENT;1079;495.58;4.06;34.88;38.13;-0.08;1.22;0.38;1.28;12.5568;-167.6;167.44;164.02;-126.25;102.56;-331.37;369.13;1.47;-54.07;190.29;92.78;765.1568092;-8.801303013;-4.624217311;-0.471377911;10.87356998
-76;TRIDENT;1080;496.04;4.06;34.8;38.13;-0.09;1.26;0.48;1.35;13.2435;-181.4;-25.88;195.95;-139.14;77.67;-311.57;349.96;-11.38;-46.55;199.24;92.82;761.136495;-8.739813487;0.133672883;0.013626186;9.779255237
-72;TRIDENT;1081;496.49;4.06;34.68;38.13;0.01;1.33;0.52;1.43;14.0283;68.58;-28.41;250.13;-110.06;50.08;-295.98;319.72;-25.57;-44.24;209.29;92.86;757.0211307;-9.14525401;-0.900978939;-0.091842909;10.01722516
-70;TRIDENT;1082;496.95;4.06;34.56;38.13;0.06;1.25;0.38;1.31;12.8511;189.05;250.13;162.87;-136.44;65.07;-305.88;341.19;-30.44;-40.25;221.32;92.9;752.910075;-8.937077534;0.452557555;0.046132269;9.705911762
-69;TRIDENT;1083;497.41;4.06;34.46;38.14;0.01;1.39;0.43;1.46;14.3226;1.27;213.71;250.13;-115.3;48.43;-298.23;323.39;-23.43;-28.5;222.67;92.94;748.8520138;-8.82187221;0.250446357;0.0255297;9.752397338
-68;TRIDENT;1084;497.87;4.06;34.37;38.14;-0.04;1.24;0.39;1.3;12.753;-134.44;203.66;250.13;-126.55;102.86;-324.17;362.88;-25.52;-16.41;228.34;92.98;744.8219806;-8.760941708;0.132457614;0.013502305;9.779534749
-68;TRIDENT;1085;498.33;4.06;34.27;38.14;-0.09;1.39;0.49;1.48;14.5188;-234.92;71.11;191.1;-130.15;74.67;-301.38;336.66;-30.96;-3.84;232.8;93.01;741.7233766;-6.736095614;4.401839335;0.448709412;8.797576953
-77;TRIDENT;1086;498.79;4.06;34.15;38.14;0.02;1.34;0.54;1.44;14.1264;-58.08;113.62;250.13;-110.51;81.12;-294.63;324.96;-39.87;2.97;237.06;93.05;737.6279599;-8.903079895;-4.710835394;-0.480207482;10.89349214
-81;TRIDENT;1087;499.24;4.06;34.05;38.15;0.03;1.4;0.53;1.5;14.715;-11.1;116.92;250.13;-139.59;71.22;-307.22;344.89;-41.04;12.88;241.77;93.09;733.584599;-8.985246277;-0.18259196;-0.01861284;9.851996151
-78;TRIDENT;1088;499.7;4.06;33.95;38.15;0;1.38;0.48;1.46;14.3226;-75.82;209.95;250.13;-108.56;77.37;-292.68;321.61;-39.39;22.31;247.26;93.12;730.4951044;-6.716292779;4.932507604;0.502804037;8.675523251
-77;TRIDENT;1089;500.16;4.06;33.83;38.15;-0.01;1.31;0.46;1.39;13.6359;-90.96;174.02;250.13;-136.89;85.32;-311.12;350.45;-40.26;33.91;251.27;93.16;726.4113731;-8.877676696;-4.69866069;-0.478966431;10.89069196
-70;TRIDENT;1090;500.62;4.06;33.74;38.15;-0.06;1.48;0.51;1.56;15.3036;-193.24;124.93;250.13;-115.3;74.82;-293.13;323.76;-40.67;45.42;255.93;93.2;722.4025496;-8.714833541;0.354006859;0.036086326;9.728578423
-69;TRIDENT;1091;501.08;4.06;33.64;38.15;0.01;1.38;0.54;1.48;14.5188;-90.87;51.79;250.13;-127.15;94.16;-307.67;345.97;-44.83;56.6;261.64;93.24;718.3738554;-8.75803092;-0.093907344;-0.009572614;9.831598689
-69;TRIDENT;1092;501.53;4.06;33.54;38.14;0.03;1.24;0.43;1.31;12.8511;-43.28;216.32;250.13;-117.25;56.08;-295.98;323.26;-38.19;66.08;272.85;93.28;714.3489512;-8.944231511;-0.413779092;-0.042179316;9.905169191
-70;TRIDENT;1093;501.99;4.06;33.44;38.15;0;1.34;0.44;1.41;13.8321;-82.27;250.13;250.13;-128.05;99.26;-311.87;351.44;-24.47;78.14;288.44;93.32;710.3278348;-8.741557493;0.440595691;0.044912914;9.708662991
-67;TRIDENT;1094;502.45;4.06;33.32;38.16;-0.08;1.3;0.42;1.36;13.3416;-180.15;163.08;236.78;-120.85;75.27;-296.58;328.98;80.84;84.89;37.5;93.36;706.2644135;-8.83352457;-0.199928427;-0.020380064;9.855983538
-68;TRIDENT;1095;502.91;4.06;33.27;38.15;-0.02;1.24;0.47;1.32;12.9492;-112.56;127.63;250.13;-117.85;99.26;-308.57;344.91;106.04;74.14;70.19;93.39;703.3114646;-6.419454176;5.247979115;0.534962193;8.602964803
-71;TRIDENT;1096;503.37;4.06;33.15;38.16;-0.03;1.38;0.47;1.46;14.3226;-101.63;235.65;154;234.35;62.67;-302.88;337.21;104.5;63.12;73.21;93.43;695.3164018;-17.38057126;-23.82851539;-2.429002589;15.29055854
-74;TRIDENT;1097;503.83;4.06;33.08;38.16;-0.04;1.35;0.5;1.44;14.1264;-135.69;184.93;97.27;-111.25;89.66;-299.88;332.18;111.98;53.73;87.43;93.47;691.3130606;-8.70291569;18.86446863;1.92298355;5.471172216
-68;TRIDENT;1098;504.28;4.06;32.98;38.17;0;1.2;0.48;1.29;12.6549;8.89;97.59;234.11;-128.65;88.16;-304.08;341.74;111.79;48.08;94.43;93.51;688.3242768;-6.641741792;4.58038644;0.466909933;8.756511119
-68;TRIDENT;1099;504.74;4.06;32.91;38.17;0.03;1.33;0.48;1.41;13.8321;125.42;168.5;250.13;-124;45.13;-305.43;332.71;112.89;37.62;94.8;93.54;683.3847068;-10.73819559;-8.90533434;-0.907781278;11.8582269
-68;TRIDENT;1100;505.2;4.06;32.81;38.17;-0.01;1.23;0.42;1.3;12.753;-21.05;221.74;232.49;-113.2;90.11;-297.63;330.94;118.51;25.7;96;93.59;679.4589503;-8.534253278;4.791178935;0.488397445;8.708028845
-70;TRIDENT;1101;505.66;4.06;32.74;38.17;0;1.2;0.41;1.27;12.4587;-56.81;196.89;250.13;-134.05;67.47;-301.08;336.41;118.51;12.95;99.45;93.63;676.4557902;-6.528608807;4.360096676;0.444454299;8.807177765
-72;TRIDENT;1102;506.12;4.06;32.66;38.16;-0.05;1.38;0.46;1.46;14.3226;-129.51;176.23;250.13;-108.56;92.66;-299.58;331.84;116.31;-0.05;102.55;93.66;672.5356714;-8.521997482;-4.33345364;-0.441738393;10.80669434
-81;TRIDENT;1103;506.58;4.06;32.59;38.16;-0.07;1.35;0.47;1.43;14.0283;-114.63;173.82;250.13;-140.19;80.22;-313.22;352.42;110.29;-12.24;105.61;93.7;668.6185778;-8.515420815;0.014297101;0.001457401;9.806711667
-75;TRIDENT;1104;507.03;4.06;32.52;38.16;0.01;1.22;0.47;1.31;12.8511;-74.56;102.99;250.13;-106.31;69.42;-292.53;318.9;104.34;-23.23;107.95;93.74;664.6392552;-8.842939139;-0.727818497;-0.074191488;9.977398254
-69;TRIDENT;1105;507.49;4.06;32.42;38.17;-0.01;1.37;0.48;1.45;14.2245;-50.37;167.62;250.13;-133;88.61;-310.52;349.24;100.56;-33.58;110.2;93.78;660.7718311;-8.407443707;0.9467292;0.096506544;9.592252284
-69;TRIDENT;1106;507.95;4.06;32.37;38.17;-0.09;;0.46;1.42;13.9302;-146.9;159.4;205.59;-128.95;69.87;-299.28;333.28;92.61;-44.02;118.55;93.82;656.7994106;-8.635696858;-0.496202502;-0.050581295;9.924126576
-82;TRIDENT;1107;508.41;4.06;32.27;38.17;-0.05;1.46;0.57;1.56;15.3036;-147.97;55.68;200.15;-108.71;88.01;-299.73;330.76;79.79;-51.55;127.8;93.86;652.9376546;-8.395121743;0.52298938;0.053311863;9.689712443
-74;TRIDENT;1108;508.87;4.06;32.22;38.17;0.01;1.33;0.53;1.43;14.0283;-22.58;56.81;250.13;-139.14;77.07;-308.57;347.16;67.69;-58.25;135.28;93.9;649.0359047;-8.482064952;-0.189006975;-0.019266766;9.853471604
-74;TRIDENT;1109;509.33;4.06;32.15;38.17;0;1.42;0.51;1.51;14.8131;57.11;157.95;250.13;-111.1;48.73;-297.93;321.68;55.16;-65.82;148.56;93.94;645.1794408;-8.383617076;0.214017122;0.02181622;9.760776062
-77;TRIDENT;1110;509.78;4.06;32.1;38.17;0.03;1.44;0.48;1.52;14.9112;37.85;156.44;250.13;-128.95;84.87;-304.38;341.28;30.5;-67.81;177.45;93.98;642.2624422;-6.482219077;4.225328887;0.430716502;8.838174356
-74;TRIDENT;1111;510.24;4.06;32.05;38.15;-0.02;1.5;0.47;1.57;15.4017;-131.48;250.13;250.13;-113.2;67.92;-291.63;320.12;6.53;-65.07;205.25;94.01;638.3686996;-8.464657949;-4.309649723;-0.439311898;10.80121944
-69;TRIDENT;1112;510.7;4.06;31.98;38.16;-0.07;1.32;0.41;1.38;13.5378;-178.72;206.76;223.71;-133.45;98.06;-325.97;365.62;-14.18;-54.72;223.09;94.05;634.5195626;-8.367689105;0.210801835;0.021488464;9.761515578
-67;TRIDENT;1113;511.16;4.06;31.93;38.16;-0.11;1.36;0.47;1.44;14.1264;-232.05;91.31;194.05;-126.25;73.17;-296.58;330.53;-26.63;-42.43;230.4;94.09;630.6729417;-8.362219386;0.011890693;0.001212099;9.807265141
-67;TRIDENT;1114;511.62;4.06;31.88;38.16;0.01;1.29;0.49;1.37;13.4397;20.72;116.72;250.13;-113.95;86.96;-298.68;331.3;-40.01;-36.18;237.25;94.13;626.8288352;-8.356753199;0.011883016;0.001211317;9.807266906
-67;TRIDENT;1115;512.08;4.06;31.83;38.16;0.01;1.37;0.47;1.45;14.2245;0.02;165.31;250.13;-136.59;56.23;-307.52;341.16;-42.44;-27.66;243.79;94.17;623.921828;-6.319580785;4.428635682;0.451440946;8.791413793
-67;TRIDENT;1116;512.53;4.06;31.78;38.15;0.03;1.55;0.48;1.63;15.9903;18.84;209.27;250.13;-112.9;83.52;-296.43;328.01;-43.26;-16.14;246.72;94.2;620.041594;-8.622742231;-5.118136547;-0.521726457;10.98717141
-69;TRIDENT;1117;512.99;4.06;31.71;38.15;0.01;1.39;0.38;1.44;14.1264;-173.07;250.13;250.13;-124.15;67.17;-295.98;327.92;-42.87;-3.56;248.53;94.24;616.2047922;-8.340873595;0.612757905;0.062462579;9.669065682
-65;TRIDENT;1118;513.45;4.06;31.66;38.14;-0.1;1.36;0.38;1.41;13.8321;-250.14;206.08;139.02;-126.1;103.01;-336.31;373.65;-49.43;10.52;248.23;94.28;612.3704986;-8.335420912;0.011853658;0.001208324;9.807273659
-71;TRIDENT;1119;513.91;4.06;31.61;38.15;-0.11;1.33;0.5;1.43;14.0283;-176.21;18.55;188.72;-139.44;73.47;-310.07;347.83;-59.98;19.86;245.31;94.32;608.5387116;-8.329971742;0.011846022;0.001207546;9.807275415
-85;TRIDENT;1120;514.37;4.06;31.56;38.14;0.03;1.26;0.51;1.36;13.3416;53.34;53.05;250.13;-104.81;61.62;-293.43;317.62;-65.69;27.11;248.69;94.36;604.7094296;-8.32452608;0.011838396;0.001206768;9.807277169
-77;TRIDENT;1121;514.83;4.06;31.51;38.13;0;1.34;0.45;1.41;13.8321;87.86;170.92;250.13;-137.34;73.17;-307.07;344.26;-62.12;37.38;251.17;94.4;600.9418298;-8.190434177;0.291504137;0.029714999;9.742954048
-75;TRIDENT;1122;515.28;4.06;31.49;38.13;0.03;1.44;0.47;1.52;14.9112;11.66;152.96;250.13;-110.06;54.58;-295.38;319.91;-59.66;49.48;250.07;94.44;598.0485693;-6.429467782;3.913258655;0.398905062;8.909950509
-78;TRIDENT;1123;515.74;4.06;31.44;38.13;-0.04;1.54;0.5;1.62;15.8922;-151.11;217.57;250.13;-135.09;95.81;-321.02;361.23;-59.85;61.67;249.05;94.47;594.2844905;-8.182780048;-3.811548404;-0.388537044;10.68665613
-68;TRIDENT;1124;516.2;4.06;31.42;38.13;-0.08;1.34;0.44;1.41;13.8321;-179.53;167.25;231.15;-119.05;81.27;-297.78;330.83;-74.37;74.24;240.16;94.51;590.4640072;-8.305398447;-0.266561737;-0.02717245;9.8713092
-67;TRIDENT;1125;516.66;4.06;31.37;38.12;-0.04;1.25;0.48;1.34;13.1454;-184.46;105.02;210.37;-120.25;99.56;-312.77;349.57;-120.47;83.46;200.83;94.55;587.6147576;-6.194020883;4.589951227;0.467884937;8.754311218
-69;TRIDENT;1126;517.12;4.06;31.34;38.12;0;1.31;0.51;1.4;13.734;-33.95;83.77;250.13;-133.75;59.08;-304.98;338.21;153.25;81.5;120.82;94.58;583.8560808;-8.171036535;-4.297860114;-0.438110103;10.79850783
-69;TRIDENT;1127;517.58;4.06;31.32;38.13;-0.03;1.18;0.39;1.24;12.1644;21.97;198.85;250.13;-106.31;79.92;-293.73;322.44;127.86;71.91;96.12;94.62;580.0420039;-8.291471463;-0.261815061;-0.026688589;9.870217464
-69;TRIDENT;1128;518.03;4.06;31.27;38.12;0.01;1.5;0.52;1.59;15.5979;-72.85;180;250.13;-138.84;70.47;-307.07;344.29;127.8;59.23;94.96;94.66;577.1973044;-6.321554468;4.377593324;0.446237852;8.803153536
-70;TRIDENT;1129;518.49;4.06;31.24;38.12;0.03;1.38;0.44;1.45;14.2245;-121.36;243.28;250.13;-106.46;91.76;-300.48;331.72;124.89;46.28;95.33;94.69;572.4777581;-10.25988336;-8.561584555;-0.872740525;11.77916445
-76;TRIDENT;1130;518.95;4.06;31.2;38.13;-0.04;1.49;0.47;1.57;15.4017;-102.7;250.13;29.74;-145.59;78.42;-337.21;375.58;121.3;32.71;97.97;94.74;569.6924926;-6.054924892;9.141214067;0.931826103;7.707520765
-68;TRIDENT;1131;519.41;4.06;31.2;38.13;-0.08;1.06;0.4;1.13;11.0853;-157.21;-4.92;143.51;-116.65;82.47;-295.08;327.84;121.33;26.47;107.08;94.77;565.8869341;-8.272953428;-4.821801165;-0.491518977;10.91901427
-68;TRIDENT;1132;519.87;4.06;31.15;38.12;0.02;1.21;0.47;1.3;12.753;126.4;63.31;235.92;-116.8;72.42;-294.63;325.11;113.05;21.36;102.66;94.81;563.0482764;-6.170994968;4.569474913;0.465797647;8.75902077
-68;TRIDENT;1133;520.33;4.06;31.12;38.12;0.08;1.26;0.4;1.32;12.9492;189.33;250.13;230.47;-135.99;46.33;-321.32;351.98;117.21;11.78;100.29;94.84;559.3021276;-8.143801748;-4.288710391;-0.43717741;10.79640339
-68;TRIDENT;1134;520.78;4.06;31.1;38.11;0.03;1.34;0.38;1.4;13.734;-17.02;250.13;250.13;-111.4;88.91;-298.83;331.08;124.77;-1.03;104.23;94.88;556.4662295;-6.301995712;4.092902301;0.41721736;8.868632471
-71;TRIDENT;1135;521.24;4.06;31.07;38.11;-0.04;1.42;0.42;1.48;14.5188;-172.63;250.13;245.36;-135.69;75.42;-304.83;342.08;123.19;-14.89;106.96;94.91;552.7233315;-8.136734732;-3.988563086;-0.406581354;10.72736951
-75;TRIDENT;1136;521.7;4.06;31.05;38.12;-0.1;1.28;0.41;1.35;13.2435;-184.72;97.6;109.08;-118.45;104.66;-322.07;358.77;113.79;-27.89;111.55;94.95;549.0182809;-8.054457933;0.178862606;0.018232682;9.768861601
-75;TRIDENT;1137;522.16;4.06;31.05;38.11;-0.02;1.11;0.44;1.19;11.6739;-50.46;-9.56;250.13;-134.8;81.42;-307.82;345.77;104.1;-33.05;115.37;94.99;545.2607149;-8.168621696;-0.248182094;-0.025298888;9.867081882
-74;TRIDENT;1138;522.62;4.06;31.02;38.11;0.04;1.35;0.5;1.44;14.1264;109.1;141.36;241.45;-115.9;40.33;-308.12;331.66;103.56;-42.52;112.98;95.03;542.4483068;-6.113930622;4.466719727;0.455323112;8.782654463
-72;TRIDENT;1139;523.08;4.06;31;38.11;0.06;1.38;0.44;1.45;14.2245;106.41;250.13;250.13;-128.95;76.77;-300.78;336.14;104.96;-52.43;117.16;95.06;538.6941965;-8.161109426;-4.450388705;-0.45365838;10.8335894
-71;TRIDENT;1140;523.53;4.06;30.97;38.11;-0.01;1.38;0.46;1.46;14.3226;-94.82;224.92;250.13;-122.8;66.12;-295.83;327.06;96.25;-63.8;132.38;95.1;534.9948511;-8.220767577;-0.132573668;-0.013514135;9.840491944
-69;TRIDENT;1141;523.99;4.06;30.97;38.11;-0.08;1.38;0.46;1.46;14.3226;-250.14;122.61;250.13;-121.6;102.11;-318.92;356.26;65.85;-72.09;160.83;95.14;531.261825;-8.115274059;0.229333735;0.023377547;9.757253241
-70;TRIDENT;1142;524.45;4.06;30.95;38.11;0.02;1.4;0.51;1.49;14.6169;-95.63;157.68;250.13;-122.2;55.03;-297.03;325.86;19.96;-75.17;198.17;95.18;528.4892686;-6.027296562;4.539081514;0.462699441;8.766011252
-69;TRIDENT;1143;524.91;4.06;30.95;38.1;-0.01;1.34;0.45;1.41;13.8321;-131.92;168.05;250.13;-124.45;97.16;-312.47;350.1;-15.33;-69.49;231.01;95.21;524.7591124;-8.109035148;-4.525518664;-0.461316887;10.85086929
-68;TRIDENT;1144;525.37;4.06;30.93;38.1;-0.08;1.3;0.41;1.36;13.3416;-179.34;211.68;169.07;-132.55;78.27;-303.78;340.55;-32.89;-59.16;244.81;95.25;521.0649703;-8.030743655;0.170198896;0.017349531;9.770854254
-74;TRIDENT;1145;525.82;4.06;30.93;38.11;-0.06;1.23;0.48;1.32;12.9492;-111.4;86.12;167.54;-109.46;98.96;-308.27;341.77;-40.54;-48.84;245.18;95.29;518.2440537;-6.268703688;3.915644373;0.399148254;8.909401794
-72;TRIDENT;1146;526.28;4.06;30.9;38.11;0;1.29;0.52;1.39;13.6359;-43.28;54.72;244.31;-137.94;77.07;-307.97;346.15;-47.12;-41.81;248.34;95.32;515.4752501;-6.019138122;0.542533838;0.055304163;9.685217217
-72;TRIDENT;1147;526.74;4.06;30.9;38.11;0.05;1.33;0.43;1.4;13.734;180.27;151.31;250.13;-114.7;41.83;-305.43;328.93;-51.75;-32.69;253.42;95.35;510.8621449;-10.02848974;-8.715981784;-0.888479285;11.81467581
-70;TRIDENT;1148;527.2;4.06;30.9;38.1;-0.01;1.29;0.4;1.35;13.2435;-24.02;250.13;250.13;-127.3;87.11;-303.63;340.56;-45.76;-21.7;256.06;95.4;507.1397089;-8.092251972;4.209212545;0.429073654;8.841881115
-68;TRIDENT;1149;527.66;4.06;30.88;38.11;-0.03;1.38;0.45;1.45;14.2245;-141.69;202.12;250.13;-118.15;65.97;-295.68;325.17;-46.6;-7.76;255.75;95.44;504.3739064;-6.012614223;4.520951629;0.460851338;8.770181125
-66;TRIDENT;1150;528.12;4.06;30.88;38.1;-0.04;1.25;0.43;1.32;12.9492;-164.55;183.39;240.21;-122.35;101.96;-321.47;358.76;-51.86;5.32;255.79;95.47;499.7657991;-10.01762455;-8.706544184;-0.887517246;11.81250516
-67;TRIDENT;1151;528.57;4.06;30.88;38.11;-0.03;1.3;0.5;1.39;13.6359;-135.6;96.92;250.13;-131.95;66.27;-300.48;334.8;-58.33;16.92;255.6;95.52;496.0807195;-8.189065886;4.063463693;0.414216482;8.875403351
-66;TRIDENT;1152;529.03;4.06;30.88;38.1;0.04;1.52;0.58;1.62;15.8922;-3.92;90.35;250.13;-106.91;79.32;-294.93;323.58;-63.04;27.81;256.75;95.56;492.3968887;-8.008327679;0.392909146;0.040051901;9.719630896
-66;TRIDENT;1153;529.49;4.06;30.88;38.09;0.03;1.33;0.42;1.4;13.734;84;250.13;250.13;-133.75;49.78;-308.57;339.98;-62.97;39.04;257.13;95.6;489.6348347;-6.004465253;4.356222663;0.444059395;8.808068787
-65;TRIDENT;1154;529.95;4.06;30.88;38.1;0.06;1.38;0.4;1.44;14.1264;-29.48;250.13;250.13;-115;96.11;-304.53;339.41;-61.78;51.92;253.37;95.63;485.9052361;-8.107822995;-4.572516829;-0.46610773;10.86167887
-67;TRIDENT;1155;530.41;4.06;30.85;38.09;-0.1;1.51;0.42;1.57;15.4017;-250.14;202.24;168.31;-134.35;81.57;-306.18;344.16;-71.16;65.33;243.64;95.67;482.2251982;-8.00008244;0.234218597;0.023875494;9.756129723
-73;TRIDENT;1156;530.87;4.06;30.85;38.09;-0.08;1.43;0.53;1.52;14.9112;-174.5;41.63;196.92;-113.5;97.91;-310.22;344.54;-101.07;72.78;222.37;95.71;479.465987;-5.998285202;4.351733127;0.443601746;8.809101381
-70;TRIDENT;1157;531.32;4.06;30.85;38.09;0.01;1.33;0.51;1.42;13.9302;51.47;109.57;250.13;-139.29;72.42;-307.52;345.28;-127.79;79.45;202.27;95.74;475.7881277;-8.173020771;-4.832745709;-0.492634629;10.92153151
-72;TRIDENT;1158;531.78;4.06;30.85;38.09;0.02;1.38;0.5;1.47;14.4207;71.45;97.6;250.13;-112.3;44.83;-302.73;325.98;170.8;79.81;138.33;95.78;471.1925522;-9.99038146;-3.950784107;-0.402730286;10.71868034
-78;TRIDENT;1159;532.24;4.06;30.85;38.09;0.04;1.39;0.46;1.46;14.3226;8.44;208.32;250.13;-131.95;79.77;-303.48;340.4;140.06;72.46;104;95.83;468.4361389;-5.992202915;8.691692488;0.886003312;7.810910728
-71;TRIDENT;1160;532.7;4.06;30.85;38.08;0.02;1.52;0.47;1.59;15.5979;-94.82;230.81;250.13;-111.1;67.62;-292.83;320.42;135.85;59.31;99.08;95.86;464.7620075;-7.987242051;-4.337041599;-0.442104139;10.80751957
-80;TRIDENT;1161;533.16;4.06;30.85;38.07;-0.04;1.57;0.47;1.64;16.0884;-250.14;249.56;224.18;-142.14;89.36;-324.47;365.33;130.3;45.89;97.97;95.9;462.0528162;-5.889546453;4.560207821;0.464852989;8.761152201
-70;TRIDENT;1162;533.61;4.06;30.88;38.06;-0.07;1.31;0.42;1.38;13.5378;-247.83;109.57;201.3;-115.45;85.17;-296.88;329.73;121.63;33.6;100.3;95.93;457.4174663;-10.30077751;-9.802735676;-0.999259498;12.06462921
-66;TRIDENT;1163;534.07;4.06;30.85;38.07;-0.05;1.29;0.48;1.38;13.5378;-116.69;104.84;235.25;-131.2;94.61;-316.52;355.46;111.97;23.6;101.25;95.98;454.6645413;-5.98461941;9.382952386;0.956468133;7.651920951
-65;TRIDENT;1164;534.53;4.06;30.85;38.07;0.02;1.29;0.45;1.37;13.4397;41.16;168.5;250.13;-118.9;47.23;-302.43;328.38;107.14;13.12;102.23;96.01;450.9950581;-7.977137384;-4.331560814;-0.441545445;10.80625899
-64;TRIDENT;1165;534.99;4.06;30.85;38.06;0.03;1.3;0.43;1.36;13.3416;-20.69;250.13;250.13;-121.75;93.26;-303.48;340.03;108.54;1.56;104.85;96.05;447.3709563;-7.878482209;0.214467772;0.021862158;9.760672412
-64;TRIDENT;1166;535.45;4.06;30.88;38.07;-0.04;1.41;0.47;1.48;14.5188;-155.05;175.94;250.13;-129.85;68.37;-299.58;333.59;107.19;-11.04;111.29;96.09;443.7035849;-7.972546587;-0.204487779;-0.02084483;9.857032189
-74;TRIDENT;1167;535.91;4.06;30.88;38.07;-0.08;1.36;0.48;1.44;14.1264;-172.17;128.92;148;-114.4;101.21;-312.62;347.94;99.14;-22.26;116.37;96.13;440.9103563;-6.072236054;4.131109855;0.421112116;8.859844733
-63;TRIDENT;1168;536.36;4.06;30.85;38.07;-0.07;1.34;0.53;1.45;14.2245;-81.19;52.66;165.07;-137.49;92.21;-320.12;360.39;90.32;-27.94;120.59;96.16;437.2455081;-8.144107048;-4.604157765;-0.469333105;10.86895629
-65;TRIDENT;1169;536.82;4.06;30.85;38.07;-0.01;1.17;0.46;1.26;12.3606;49.13;64.26;202.82;-125.05;45.88;-304.08;331.97;85.69;-34.23;123.05;96.2;433.6246815;-7.871362363;0.592923229;0.060440696;9.673627657
-64;TRIDENT;1170;537.28;4.06;30.88;38.06;0.05;1.34;0.46;1.42;13.9302;176.23;144.24;250.13;-110.8;58.63;-295.23;320.74;84.65;-41.74;128.15;96.24;430.8775087;-5.97211464;4.128799397;0.420876595;8.860376139
-66;TRIDENT;1171;537.74;4.06;30.88;38.07;0.03;1.29;0.38;1.35;13.2435;-3.66;250.13;250.13;-138.24;59.38;-307.37;342.22;83.3;-50.51;139.77;96.27;427.2437935;-7.899381012;-4.189709504;-0.427085576;10.77363319
-68;TRIDENT;1172;538.2;4.06;30.9;38.06;-0.03;1.39;0.42;1.46;14.3226;-188.14;250.13;190.72;-108.26;95.96;-307.07;339.44;66.43;-57.22;160.38;96.31;423.5551025;-8.018893346;-0.259809422;-0.026484141;9.869756167
-79;TRIDENT;1173;538.66;4.06;30.88;38.06;-0.07;1.24;0.43;1.31;12.8511;-224.61;122.53;160.67;-142.14;87.86;-324.17;364.7;40.47;-56.8;182.7;96.35;419.9233675;-7.895076038;0.26916806;0.027438131;9.748091346
-70;TRIDENT;1174;539.11;4.06;30.9;38.07;0.03;1.29;0.52;1.39;13.6359;-77.16;120.95;250.13;-110.8;57.13;-296.73;321.85;20.67;-56.47;196.04;96.39;416.2649994;-8.129706873;-0.521401856;-0.053150036;9.929922427
-65;TRIDENT;1175;539.57;4.06;30.9;38.07;0.05;1.31;0.49;1.4;13.734;30.05;160.09;250.13;-126.55;86.96;-302.58;339.31;2.99;-54.31;213.94;96.43;412.6485712;-7.861800497;0.582405166;0.059368518;9.676046812
-65;TRIDENT;1176;540.03;4.06;30.93;38.06;-0.04;1.46;0.5;1.54;15.1074;-132.82;179.51;250.13;-126.55;63.27;-297.18;329.14;-6.77;-45.52;228.46;96.47;408.0784225;-9.935105922;-4.507185706;-0.459448084;10.84665271
-63;TRIDENT;1177;540.49;4.06;30.93;38.06;0.01;1.26;0.48;1.35;13.2435;-60.4;163.01;250.13;-112;95.81;-306.63;340.21;-19.04;-37.43;239.24;96.52;405.3372534;-5.959063204;8.643571127;0.881097974;7.821978641
-67;TRIDENT;1178;540.95;4.06;30.93;38.07;-0.07;1.35;0.47;1.43;14.0283;-191.45;99.62;228.67;-140.49;73.62;-310.82;348.95;-24.88;-26.72;246.52;96.55;400.7965302;-9.871137489;-8.504509316;-0.866922458;11.76603714
-72;TRIDENT;1179;541.41;4.06;30.95;38.06;-0.01;1.34;0.52;1.44;14.1264;-110.06;74.12;250.13;-102.71;78.42;-295.53;322.55;-34.31;-18.66;252.87;96.6;397.1440018;-7.940279012;4.197518429;0.427881593;8.844570761
-79;TRIDENT;1180;541.86;4.06;30.95;38.06;-0.06;1.22;0.41;1.29;12.6549;-103.88;171.69;250.13;-141.09;88.31;-321.32;361.87;-39.5;-9.82;258.75;96.64;394.4054089;-6.085762054;4.121148795;0.420096717;8.862135777
-66;TRIDENT;1181;542.32;4.06;30.95;38.07;-0.03;1.27;0.44;1.35;13.2435;-47.76;182.79;250.13;-111.7;67.62;-293.73;321.45;-43.4;1.9;261.65;96.67;390.7807212;-7.879755958;-3.899986749;-0.397552166;10.70699695
-70;TRIDENT;1182;542.78;4.06;30.97;38.07;-0.09;1.34;0.48;1.43;14.0283;-165.27;57.1;182.99;-121.45;103.76;-318.17;356.02;-45.06;13.88;263.72;96.71;386.2191566;-9.91644476;-4.427584352;-0.451333777;10.8283444
-66;TRIDENT;1183;543.24;4.06;30.97;38.07;-0.08;1.3;0.52;1.41;13.8321;-108.89;-31.07;180.79;-140.49;84.12;-316.52;356.37;-50.73;21.61;266.66;96.76;383.483134;-5.947875216;8.627325097;0.879441906;7.825715228
-67;TRIDENT;1184;543.7;4.06;30.97;38.07;0.03;1.27;0.49;1.36;13.3416;144.15;43.39;250.13;-119.05;40.18;-310.07;334.56;-52.51;26.62;272.85;96.79;379.8361719;-7.928178445;-4.30500702;-0.438838636;10.80015161
-64;TRIDENT;1185;544.16;4.06;30.97;38.06;0.08;1.44;0.45;1.51;14.8131;169.16;248.43;250.13;-124.75;63.57;-295.68;327.16;-42.61;34.87;279.77;96.83;376.227539;-7.844854104;0.181139871;0.018464819;9.76833783
-67;TRIDENT;1186;544.61;4.06;31;38.07;0.05;1.41;0.41;1.47;14.4207;-44.72;250.13;250.13;-124.3;55.03;-299.43;328.84;-34.39;48.95;282.2;96.87;372.5826561;-8.099739849;-0.566412765;-0.057738304;9.940274936
-67;TRIDENT;1187;545.07;4.06;31;38.06;-0.06;1.41;0.4;1.46;14.3226;-202.66;250.13;213.51;-127.6;103.91;-327.62;366.62;-31.53;62.92;287.85;96.91;369.8741135;-5.888135991;4.807834473;0.490095257;8.704198071
-65;TRIDENT;1188;545.53;4.06;31.02;38.06;-0.07;1.3;0.46;1.38;13.5378;-200.05;64.64;250.13;-127.45;73.77;-298.38;332.74;-35.99;75.91;292.1;96.94;365.3205644;-9.899019866;-8.719312772;-0.888818835;11.81544194
-63;TRIDENT;1189;545.99;4.06;31.02;38.06;-0.02;1.32;0.5;1.41;13.8321;-87.92;108.02;250.13;-117.4;92.81;-303.93;338.78;5.39;82.98;342.34;96.99;361.6790935;-7.916240938;4.310388974;0.439387255;8.818610536
-64;TRIDENT;1190;546.45;4.06;31.02;38.06;0;1.37;0.49;1.45;14.2245;-83.71;190.05;250.13;-132.85;62.07;-303.18;336.77;72.61;78.86;53.97;97.03;358.9841909;-5.858484042;4.473384556;0.456002503;8.781121552
-63;TRIDENT;1191;546.91;4.06;31.05;38.06;0;1.3;0.45;1.37;13.4397;-74.03;192.11;250.13;-108.41;91.31;-300.33;332.09;95.99;68.94;81.76;97.06;355.3444875;-7.912398579;-4.465031601;-0.45515103;10.83695727
-64;TRIDENT;1192;547.36;4.06;31.05;38.06;-0.04;1.43;0.47;1.5;14.715;-139.19;212.37;250.13;-136.14;74.07;-305.88;342.9;105.07;57.2;95.27;97.1;351.7059982;-8.085531931;-0.384740783;-0.039219244;9.89849038
-63;TRIDENT;1193;547.82;4.06;31.05;38.07;-0.03;1.32;0.46;1.4;13.734;-137.31;183.3;250.13;-106.76;92.36;-302.58;333.89;104.65;45.36;102.05;97.14;348.0916061;-7.857374117;0.495995249;0.050560168;9.695921093
-66;TRIDENT;1194;548.28;4.06;31.07;38.06;-0.04;1.38;0.49;1.47;14.4207;-144.38;131.21;250.13;-140.04;74.37;-310.97;349.07;102.44;33.67;107.63;97.18;344.4553029;-7.905006923;-0.103549579;-0.010555513;9.833816403
-68;TRIDENT;1195;548.74;4.06;31.07;38.07;-0.05;1.29;0.45;1.36;13.3416;-172.72;131.02;250.13;-104.36;81.87;-297.18;325.44;98.37;22.48;111.74;97.22;340.8538203;-7.829309972;0.164558589;0.016774576;9.772151525
-76;TRIDENT;1196;549.2;4.06;31.1;38.05;-0.01;1.44;0.54;1.54;15.1074;-88.09;157.5;250.13;-139.14;85.47;-315.17;354.96;93.12;11.71;115.4;97.26;337.2417478;-7.85233146;-0.050046712;-0.005101602;9.821510744
-67;TRIDENT;1197;549.66;4.06;31.12;38.06;0.07;1.43;0.52;1.52;14.9112;-23.21;137.42;250.13;-104.81;62.82;-294.33;318.69;89.73;1.19;120.31;97.3;333.6084789;-7.898410642;-0.100172136;-0.010211227;9.833039591
-74;TRIDENT;1198;550.11;4.06;31.12;38.06;0;1.4;0.43;1.46;14.3226;-116.78;250.13;250.13;-139.89;85.62;-317.42;357.29;88.37;-9.13;125.61;97.34;330.0089535;-7.998945522;-0.223410845;-0.022773786;9.861384494
-65;TRIDENT;1199;550.57;4.06;31.15;38.06;-0.08;1.29;0.39;1.35;13.2435;-177.1;193.94;85.15;-120.4;89.81;-300.63;336.07;81.24;-17.72;136.66;97.38;326.3455668;-7.963884071;0.076220545;0.007769678;9.792469275
-61;TRIDENT;1200;551.03;4.06;31.12;38.06;-0.04;1.32;0.53;1.42;13.9302;-127.89;-6.72;250.13;-119.95;98.06;-307.97;344.75;72.01;-18.94;145.04;97.42;322.7477404;-7.821361636;0.309831382;0.031583219;9.738738782
-64;TRIDENT;1201;551.49;4.06;31.15;38.06;0;1.42;0.56;1.52;14.9112;10.23;95.36;250.13;-136.59;48.13;-312.92;344.81;65.66;-27.79;149.26;97.46;320.0260299;-5.916762028;4.140433929;0.422062582;8.857700196
-62;TRIDENT;1202;551.95;4.06;31.15;38.05;0.03;1.32;0.46;1.4;13.734;11.22;206.47;250.13;-106.46;68.67;-292.98;319.2;61.47;-34.61;158.54;97.49;315.512088;-9.812917092;-8.469902314;-0.863394731;11.75807753
-62;TRIDENT;1203;552.41;4.06;31.17;38.05;0.06;1.48;0.51;1.56;15.3036;-26.79;221.48;250.13;-135.69;63.12;-306.33;340.93;53.3;-38.4;173.36;97.54;312.7920063;-5.913221171;8.47759983;0.864179391;7.860152039
-64;TRIDENT;1204;552.86;4.06;31.17;38.04;-0.01;1.26;0.38;1.32;12.9492;-136.6;250.13;250.13;-110.06;98.66;-307.67;341.34;41.91;-39.62;189.98;97.57;309.1967617;-7.989432365;-4.613802655;-0.470316275;10.87117461
-84;TRIDENT;1205;553.32;4.06;31.2;38.04;-0.1;1.35;0.43;1.42;13.9302;-217.98;155.21;107.18;-143.94;80.97;-322.37;362.21;25.81;-36.69;207.19;97.61;305.5718851;-7.880166572;0.237534333;0.02421349;9.755367104
-68;TRIDENT;1206;553.78;4.06;31.2;38.04;-0.08;1.27;0.49;1.36;13.3416;-139.1;18;212.26;-110.95;71.67;-294.18;322.47;13.06;-32.85;214.89;97.65;301.9482107;-7.877553043;0.005681585;0.000579163;9.808693235
-62;TRIDENT;1207;554.24;4.06;31.2;38.04;0;1.41;0.54;1.51;14.8131;43.4;74.72;250.13;-125.35;81.57;-300.18;335.37;2.26;-33.06;225.17;97.69;299.250907;-5.863703803;4.377933129;0.44627249;8.80307538
-65;TRIDENT;1208;554.7;4.06;31.22;38.03;0.04;1.36;0.48;1.44;14.1264;66.7;167.15;250.13;-129.85;45.88;-311.57;340.65;-1.7;-30.32;236.63;97.72;295.648522;-7.831271737;-4.277321595;-0.436016473;10.79378397
-63;TRIDENT;1209;555.16;4.06;31.24;38.04;0.03;1.47;0.5;1.56;15.3036;-41.4;196.84;250.13;-111.1;88.61;-298.53;330.63;-3.67;-24.44;247.31;97.76;292.0276733;-7.8714102;-0.087257528;-0.008894753;9.830069231
-66;TRIDENT;1210;555.61;4.06;31.24;38.03;0.02;1.4;0.5;1.49;14.6169;-135.42;187.18;250.13;-134.95;64.47;-302.88;337.79;-8.39;-15.51;256.77;97.8;288.4364485;-7.980499542;-0.24242076;-0.024711596;9.865756775
-66;TRIDENT;1211;556.07;4.06;31.27;38.03;-0.03;1.4;0.45;1.47;14.4207;-171.73;250.13;177.94;-113.95;98.96;-311.27;345.93;-15.13;-6.03;264.99;97.84;285.7222301;-5.900474729;4.521793073;0.460937112;8.769987593
-73;TRIDENT;1212;556.53;4.06;31.27;38.02;-0.07;1.25;0.45;1.33;13.0473;-162.14;138.49;125.88;-143.04;85.17;-320.87;361.48;-21.84;4.84;268.18;97.87;282.122854;-7.824730649;-4.183165045;-0.426418455;10.77212796
-71;TRIDENT;1213;556.99;4.06;31.29;38.02;-0.01;1.15;0.46;1.23;12.0663;18.66;60.72;250.13;-111.25;55.48;-295.68;320.75;-27.37;10.85;270.43;97.91;278.5333475;-7.803274914;0.046642902;0.004754628;9.799272133
-68;TRIDENT;1214;557.45;4.06;31.32;38.02;0.07;1.22;0.36;1.27;12.4587;199.98;202.35;250.13;-132.25;70.77;-300.18;335.57;-24.22;17.33;278.75;97.95;274.9172363;-7.861111423;-0.12573154;-0.012816671;9.838918254
-68;TRIDENT;1215;557.91;4.06;31.32;38.03;0.03;1.4;0.43;1.46;14.3226;-32.79;250.13;250.13;-118.15;54.88;-298.68;325.85;-12.92;28.83;286.1;97.99;271.3201415;-7.819771336;0.089869754;0.009161035;9.789329957
-69;TRIDENT;1216;558.36;4.06;31.34;38.02;-0.06;1.29;0.38;1.35;13.2435;-149.31;239.24;237.16;-127.75;104.06;-330.47;369.26;-7.91;40.51;296.07;98.03;267.7061823;-8.031020452;-0.46944248;-0.047853464;9.91797177
-67;TRIDENT;1217;558.82;4.06;31.34;38.02;-0.09;1.41;0.5;1.5;14.715;-250.14;46.32;148.95;-131.35;75.27;-303.18;338.87;-3.87;51.51;309.13;98.07;265.022605;-5.833863593;4.776427954;0.486893777;8.711421571
-69;TRIDENT;1218;559.28;4.06;31.37;38.02;0.03;1.29;0.51;1.39;13.6359;1.01;35.76;250.13;-108.86;81.87;-296.88;326.63;-5.52;54.33;319.25;98.1;260.5246169;-9.778235129;-8.574720729;-0.874079585;11.78218577
-77;TRIDENT;1219;559.74;4.06;31.39;38.02;0;1.47;0.54;1.57;15.4017;-1.79;136.37;250.13;-140.34;61.77;-311.27;346.99;10.27;55.8;337.47;98.15;257.8162744;-5.887700893;8.457683121;0.862149146;7.864732882
-71;TRIDENT;1220;560.2;4.06;31.39;38.02;0.03;1.42;0.51;1.51;14.8131;-43.19;208.53;250.13;-106.31;70.32;-291.63;318.27;28.21;57.76;358.77;98.18;254.2312352;-7.793563656;-4.143179919;-0.422342499;10.76293138
-76;TRIDENT;1221;560.66;4.06;31.42;38.01;0;1.51;0.54;1.61;15.7941;-107.63;216.9;250.13;-137.64;87.26;-312.47;352.42;47.99;57.77;23.61;98.22;250.6219891;-7.846187124;-0.114398845;-0.011661452;9.836311734
-66;TRIDENT;1222;561.11;4.06;31.42;38.01;-0.05;1.33;0.46;1.41;13.8321;-157.02;166.6;248.5;-112.45;77.37;-293.88;324.03;63.05;54.09;47.02;98.26;247.0301531;-7.981857699;-0.301490166;-0.030732943;9.879342738
-65;TRIDENT;1223;561.57;4.06;31.44;38.01;-0.07;1.45;0.52;1.54;15.1074;-184.99;137.39;196.44;-123.7;103.31;-316.82;355.46;70.4;47.46;64.43;98.3;244.3487776;-5.82907729;4.67995741;0.477059879;8.733609796
-71;TRIDENT;1224;562.03;4.06;31.47;38.01;-0.03;1.43;0.58;1.55;15.2055;-95.27;35.69;250.13;-135.54;66.87;-304.98;340.37;70.06;40.88;74.28;98.33;239.8407522;-9.800055121;-8.632560502;-0.879975586;11.79548892
-73;TRIDENT;1225;562.49;4.06;31.47;38.01;-0.01;1.31;0.5;1.4;13.734;-23.65;150.56;240.02;-107.66;76.17;-293.28;321.57;70.24;31.82;80.68;98.38;237.1679662;-5.810404374;8.673153798;0.884113537;7.815174626
-74;TRIDENT;1226;562.95;4.06;31.51;38.01;-0.01;1.34;0.49;1.43;14.0283;-49.74;187.37;250.13;-135.99;85.92;-309.92;349.18;74.4;24.09;91.01;98.41;233.5479654;-7.869566964;-4.476440413;-0.456314007;10.83958129
-68;TRIDENT;1227;563.41;4.06;31.49;38;0.01;1.28;0.44;1.36;13.3416;-50.37;192.2;250.13;-111.25;66.27;-293.58;320.87;75.8;15.58;99.82;98.45;229.9824601;-7.751098517;0.257540102;0.026252814;9.750765776
-64;TRIDENT;1228;563.86;4.06;31.54;38;-0.04;1.33;0.46;1.41;13.8321;-128.61;179.54;250.13;-131.2;97.91;-316.52;356.35;76.18;7.49;110.03;98.49;226.379808;-8.005893467;-0.566211001;-0.057717737;9.94022853
-61;TRIDENT;1229;564.32;4.06;31.54;38;-0.06;1.36;0.49;1.45;14.2245;-194.32;91.89;235.05;-124.3;71.22;-297.03;329.77;71.83;-0.23;119.89;98.53;222.7929634;-7.797488258;0.453054802;0.046182956;9.705797396
-65;TRIDENT;1230;564.78;4.06;31.56;38.01;-0.04;1.31;0.49;1.4;13.734;-74.2;113.56;250.13;-114.4;98.21;-307.52;342.5;64.1;-7.28;127.6;98.57;220.0924619;-5.87065557;4.188766715;0.426989471;8.846583656
-67;TRIDENT;1231;565.24;4.06;31.56;38;0;1.29;0.46;1.37;13.4397;-36.47;115.56;250.13;-137.94;64.47;-306.48;342.22;59.86;-13.84;136.41;98.6;215.6143302;-9.735068766;-8.400898253;-0.856360678;11.7422066
-70;TRIDENT;1232;565.7;4.06;31.59;38;0.02;1.23;0.42;1.3;12.753;-39.33;236.63;250.13;-104.36;80.97;-294.78;323.02;56.03;-19.77;145.79;98.65;212.9153363;-5.867378192;8.408022988;0.857086951;7.876154713
-74;TRIDENT;1233;566.15;4.06;31.59;38.01;-0.07;1.31;0.45;1.39;13.6359;-193.69;125.05;250.13;-138.24;89.06;-317.27;357.36;49.81;-22.21;159.63;98.68;208.4321676;-9.962596918;-9.10048606;-0.92767442;11.90311179
-68;TRIDENT;1234;566.61;4.06;31.61;38;0.02;1.42;0.53;1.52;14.9112;-36.73;108.52;250.13;-110.51;65.82;-293.13;320.11;37.89;-26.2;170.21;98.73;203.9368694;-9.772387512;0.41349871;0.042150735;9.714895297
-68;TRIDENT;1235;567.07;4.06;31.61;38.01;-0.01;1.25;0.39;1.31;12.8511;-113.65;242.72;250.13;-134.5;90.11;-313.52;352.85;31.37;-27.57;182.42;98.78;201.2603846;-5.818445274;8.595526604;0.876200469;7.833028881
-63;TRIDENT;1236;567.53;4.06;31.64;38;-0.05;1.3;0.44;1.38;13.5378;-167.6;149.11;223.33;-117.55;73.47;-294.48;325.48;21.5;-23.47;196.69;98.81;196.7675909;-9.766942817;-8.583690311;-0.874993916;11.78424877
-62;TRIDENT;1237;567.99;4.06;31.64;38.01;-0.07;1.2;0.41;1.27;12.4587;-90.7;214.11;176.12;-125.95;102.86;-324.77;363.2;11.15;-19.95;208.12;98.86;193.1873565;-7.783118159;4.3126623;0.439618991;8.818087671
-73;TRIDENT;1238;568.45;4.06;31.66;38;-0.07;1.37;0.53;1.47;14.4207;-171.54;35.98;206.44;-137.79;70.02;-306.63;343.38;5.69;-12.59;216.46;98.9;189.5953871;-7.808629121;-0.055458613;-0.005653274;9.822755481
-61;TRIDENT;1239;568.9;4.06;31.66;38.01;-0.06;1.3;0.51;1.39;13.6359;-60.4;23.77;222.27;-113.05;67.47;-292.98;321.2;-2.29;-12.12;224.8;98.94;186.920577;-5.944022476;4.143570324;0.422382296;8.856978826
-61;TRIDENT;1240;569.36;4.06;31.69;38;0.02;1.18;0.45;1.26;12.3606;28.08;139.74;247.83;-120.7;85.62;-299.43;334;-6;-9.18;233.56;98.97;182.4329284;-9.755757735;-8.286380999;-0.844687156;11.71586763
-62;TRIDENT;1241;569.82;4.06;31.69;38;-0.01;1.22;0.41;1.28;12.5568;44.66;210.66;250.13;-130.3;51.13;-304.83;335.43;-5.12;-3.34;242.99;99.02;178.8558643;-7.776226474;4.303328828;0.438667567;8.82023437
-66;TRIDENT;1242;570.28;4.06;31.71;38.01;-0.01;1.4;0.49;1.48;14.5188;-49.82;234.72;250.13;-110.21;89.81;-300.03;332.01;-2.71;6.47;252.27;99.06;175.2795027;-7.774699163;0.003320243;0.000338455;9.809236344
-79;TRIDENT;1243;570.74;4.06;31.73;38;-0.11;1.35;0.44;1.43;14.0283;-223.08;122.26;232.96;-142.14;83.67;-317.57;357.85;-2.66;15.19;262.06;99.1;171.69258;-7.79765791;-0.049910321;-0.005087698;9.821479374
-66;TRIDENT;1244;571.2;4.06;31.73;38;-0.03;1.44;0.56;1.54;15.1074;-137.13;57.22;250.13;-111.7;74.22;-294.33;323.45;-7.92;20.19;272.11;99.14;168.1233707;-7.759150594;0.083711557;0.008533288;9.790746342
-64;TRIDENT;1245;571.65;4.06;31.76;38;0;1.28;0.48;1.36;13.3416;-9.04;154.44;242.21;-127.75;93.26;-306.18;344.62;-9.04;25.28;282.37;99.18;164.5492306;-7.942533567;-0.407517718;-0.041541052;9.903729075
-65;TRIDENT;1246;572.11;4.06;31.78;38;0.02;1.29;0.51;1.39;13.6359;-42.66;101.47;250.13;-131.5;56.83;-303.63;335.72;-4.22;32.51;292.41;99.22;160.965233;-7.791299132;0.328770511;0.033513814;9.734382782
-65;TRIDENT;1247;572.57;4.06;31.78;37.99;0.09;1.58;0.53;1.67;16.3827;94.93;131.98;250.13;-112.9;79.92;-294.03;324.94;1.73;36.79;304.73;99.26;157.3824048;-7.788756983;0.005526411;0.000563345;9.808728926
-67;TRIDENT;1248;573.03;4.06;31.78;37.99;0.04;1.38;0.41;1.44;14.1264;-121.62;250.13;250.13;-128.65;56.38;-300.78;331.96;14.72;41.39;318.93;99.3;153.8158766;-7.753322307;0.077031905;0.007852386;9.792282662
-69;TRIDENT;1249;573.49;4.06;31.81;37.98;-0.06;1.29;0.36;1.34;13.1454;-211.71;250.13;118.92;-119.8;107.51;-328.82;366.1;23.28;47.52;337.08;99.34;150.2448851;-7.763024961;-0.021092726;-0.002150125;9.814851327
-79;TRIDENT;1250;573.95;4.06;31.83;37.99;-0.08;1.35;0.49;1.44;14.1264;-214.4;67.37;174.12;-138.24;75.57;-307.97;345.93;26.16;54.07;350.89;99.38;146.664973;-7.782417536;-0.042157771;-0.004297428;9.819696287
-86;TRIDENT;1251;574.4;4.06;31.83;37.99;0.03;1.23;0.49;1.32;12.9492;13.47;50.82;250.13;-105.71;67.92;-293.73;319.48;29.17;53.13;4.75;99.42;143.0862271;-7.952768645;-0.378558021;-0.038588993;9.897068345
-77;TRIDENT;1252;574.86;4.06;31.83;37.98;0.02;1.43;0.48;1.51;14.8131;72.89;209.48;250.13;-140.19;72.42;-308.42;346.45;41.49;48.07;19.17;99.46;139.5315183;-7.727627812;0.489436595;0.0498916;9.697429583
-72;TRIDENT;1253;575.32;4.06;31.88;37.98;-0.06;1.33;0.44;1.41;13.8321;-193.51;189.59;245.92;-121.45;68.07;-295.38;326.55;58.87;45.87;39.06;99.5;135.9678872;-7.74702426;-0.042166191;-0.004298287;9.819698224
-72;TRIDENT;1254;575.78;4.06;31.91;37.98;-0.06;1.28;0.44;1.35;13.2435;-176.21;145.62;227.91;-120.55;103.46;-316.37;354.02;61.68;39.93;53.48;99.54;132.3916969;-7.774326702;-0.059353137;-0.006050269;9.823651221
-75;TRIDENT;1255;576.24;4.06;31.91;37.99;-0.01;1.31;0.5;1.4;13.734;-55.02;93.15;250.13;-133.9;60.13;-303.33;336.97;61.91;33.42;65.05;99.58;127.9230945;-9.714352945;-4.217448353;-0.429913186;10.78001312
-74;TRIDENT;1256;576.7;4.06;31.91;37.98;-0.09;1.41;0.5;1.5;14.715;-147.44;119.76;208.46;-112.75;88.76;-298.98;331.63;64.24;25.79;74.06;99.63;125.2510158;-5.808866854;8.490187155;0.865462503;7.857256954
-72;TRIDENT;1257;577.15;4.06;31.93;37.98;-0.01;1.24;0.5;1.34;13.1454;-55.21;89.5;250.13;-130.75;91.16;-310.97;349.44;61.1;19.72;81.52;99.66;120.7850249;-9.924424069;-9.1456827;-0.932281621;11.91350702
-66;TRIDENT;1258;577.61;4.06;31.93;37.99;0.04;1.46;0.56;1.57;15.4017;3.07;87.28;250.13;-121;47.23;-301.23;328.04;61.64;12.59;90.12;99.71;117.2327481;-7.722340896;4.787137333;0.487985457;8.708958414
-66;TRIDENT;1259;578.07;4.06;31.98;37.99;0.02;1.25;0.44;1.32;12.9492;-87.56;200.03;250.13;-117.55;89.36;-299.58;333.99;63.44;5.61;98.75;99.75;113.6692855;-7.746657849;-0.052862942;-0.005388679;9.822158477
-67;TRIDENT;1260;578.53;4.06;32;37.98;-0.02;1.33;0.46;1.4;13.734;-87.47;228.05;234.87;-135.99;74.22;-304.23;341.4;61.21;0.15;109.97;99.79;110.0992978;-7.760842871;-0.030837004;-0.003143426;9.817092511
-75;TRIDENT;1261;578.99;4.06;32;37.98;-0.1;1.44;0.5;1.52;14.9112;-250.14;41.79;211.4;-108.11;94.61;-304.83;336.98;57.93;-3.01;122.2;99.83;106.5304683;-7.758325115;0.005473382;0.000557939;9.808741122
-79;TRIDENT;1262;579.45;4.06;32;37.98;0.04;1.36;0.53;1.46;14.3226;14.18;141.77;250.13;-138.24;75.27;-308.87;346.67;47.72;-8.61;128.3;99.87;102.9729185;-7.733803728;0.053307364;0.005433982;9.797739306
-74;TRIDENT;1263;579.9;4.06;32.03;37.98;0.06;1.33;0.47;1.41;13.8321;8.89;142.72;250.13;-104.51;58.03;-296.13;319.35;46.42;-12.46;138.84;99.91;98.5145162;-9.907560751;-4.830571162;-0.492412962;10.92103137
-74;TRIDENT;1264;580.36;4.06;32.03;37.98;-0.01;1.46;0.47;1.53;15.0093;-141.07;220.03;250.13;-137.64;86.06;-313.07;352.66;44.43;-15.05;150.56;99.96;94.9553169;-7.737389766;4.717763009;0.48091366;8.724914508
-61;TRIDENT;1265;580.82;4.06;32.05;37.98;-0.06;1.42;0.47;1.5;14.715;-222.9;189.5;133.11;-117.25;84.27;-298.98;332.02;35.46;-13.71;164.89;100;90.50876722;-9.666412361;-4.193527379;-0.427474758;10.7745113
-62;TRIDENT;1266;581.28;4.06;32.08;37.97;-0.07;1.29;0.49;1.38;13.5378;-149.94;83.89;173.36;-121.6;102.11;-319.22;356.53;25.28;-9.01;173.48;100.05;86.94535865;-7.746540368;4.173634766;0.425446969;8.850064004
-64;TRIDENT;1267;581.74;4.06;32.08;37.98;0.01;1.3;0.5;1.39;13.6359;33.08;70.82;250.13;-134.35;54.58;-307.37;339.86;18.77;-9.42;181.07;100.09;83.38856674;-7.732156335;0.031269637;0.003187527;9.802807984
-68;TRIDENT;1268;582.2;4.06;32.1;37.98;-0.02;1.45;0.51;1.53;15.0093;19.02;179.04;250.13;-108.41;70.92;-292.23;319.66;18.69;-10.76;191.22;100.13;79.83507548;-7.724980983;0.015598591;0.00159007;9.806412324
-67;TRIDENT;1269;582.65;4.06;32.13;37.98;0;1.43;0.5;1.51;14.8131;-70.53;209.8;250.13;-140.49;73.92;-311.12;349.29;17.97;-7.12;202.96;100.17;76.27454035;-7.912300301;-0.416265151;-0.042432737;9.905740985
-68;TRIDENT;1270;583.11;4.06;32.13;37.98;-0.03;1.27;0.39;1.33;13.0473;-97.95;250.13;250.13;-104.66;84.27;-295.98;325.05;14.67;-2.24;214.73;100.21;71.83019508;-9.661620144;-3.802869223;-0.387652316;10.68465992
-72;TRIDENT;1271;583.57;4.06;32.15;37.98;-0.05;1.24;0.42;1.31;12.8511;-158.92;166.7;228.58;-140.64;85.77;-319.97;359.88;11.5;5.23;226.64;100.26;;;;;
-62;TRIDENT;1272;584.03;4.06;32.18;37.98;;;;;;;;;;;;;;;237.32;100.3;64.72134262;;;;
-61;TRIDENT;1273;584.49;4.06;32.18;37.98;0.02;1.43;0.57;1.54;15.1074;-46.24;76.66;250.13;-125.95;91.46;-307.37;344.54;3.83;13.75;247.93;100.34;61.16911645;-7.722230801;-16.78745826;-1.711259762;13.6711154
-61;TRIDENT;1274;584.94;4.06;32.2;37.98;0.01;1.38;0.49;1.47;14.4207;-5.45;159.07;250.13;-122.95;52.78;-300.78;329.2;4.91;16.93;258.67;100.38;57.61757193;-7.892321156;-0.377978567;-0.038529925;9.89693507
-63;TRIDENT;1275;585.4;4.06;32.22;37.97;-0.02;1.52;0.48;1.59;15.5979;-163.76;233.47;250.13;-122.8;99.41;-312.02;349.74;8.71;21.43;270.01;100.42;54.06316762;-7.726965879;0.359467995;0.036643017;9.727322361
-62;TRIDENT;1276;585.86;4.06;32.22;37.97;-0.03;1.44;0.47;1.52;14.9112;-194.67;189.5;250.13;-124.45;72.87;-297.78;330.86;7.85;29.85;282.68;100.46;49.62664846;-9.644606878;-4.168784782;-0.424952577;10.7688205
-61;TRIDENT;1277;586.32;4.06;32.25;37.98;-0.03;1.43;0.52;1.52;14.9112;-201.94;127.66;250.13;-122.2;100.31;-315.02;352.47;7.52;36.6;296.03;100.51;46.96240904;-5.791824827;8.375613155;0.853783196;7.883608974
-62;TRIDENT;1278;586.78;4.06;32.25;37.97;-0.04;1.44;0.54;1.54;15.1074;-177.37;132.78;250.13;-133.45;62.97;-302.88;336.91;8.77;40.3;309.9;100.54;43.41393395;-7.714076272;-4.178807489;-0.42597426;10.77112572
-75;TRIDENT;1279;587.24;4.06;32.27;37.97;-0.01;1.28;0.49;1.38;13.5378;-90.87;138.29;250.13;-107.06;83.07;-297.48;326.89;11.85;42.74;324.34;100.58;39.86744261;-7.709763798;0.009374943;0.000955652;9.807843763
-83;TRIDENT;1280;587.69;4.06;32.3;37.97;-0.01;1.27;0.48;1.36;13.3416;-48.21;155.48;250.13;-139.14;82.47;-310.67;350.26;19.85;45.15;340.15;100.62;35.43292497;-9.854483644;-4.766044103;-0.485835281;10.90619014
-72;TRIDENT;1281;588.15;4.06;32.32;37.98;0.04;1.34;0.49;1.42;13.9302;-46.78;170.37;250.13;-108.86;62.37;-293.88;319.54;30.66;46.06;357.08;100.67;31.88763864;-7.707144195;4.668129237;0.475854153;8.736330276
-74;TRIDENT;1282;588.61;4.06;32.35;37.97;0;1.5;0.54;1.59;15.5979;-168.05;134.2;250.13;-134.8;88.91;-309.62;349.2;41.39;44.96;14.19;100.71;28.34001369;-7.712228149;-0.011052073;-0.001126613;9.812541977
-68;TRIDENT;1283;589.07;4.06;32.35;37.98;-0.04;1.47;0.49;1.54;15.1074;-155.77;192.6;250.13;-115.6;79.02;-294.63;326.21;45.57;41.79;29.68;100.75;24.79515229;-7.706220433;0.013060251;0.00133132;9.806996142
-65;TRIDENT;1284;589.53;4.06;32.37;37.97;-0.08;1.39;0.47;1.47;14.4207;-156.4;196.55;181.65;-132.7;100.01;-327.02;366.81;50.91;39.79;47.2;100.79;20.36335894;-9.634333364;-4.191549849;-0.427273175;10.77405647
-66;TRIDENT;1285;589.98;4.06;32.37;37.98;-0.04;1.25;0.5;1.35;13.2435;-144.84;62.26;244.12;-127.3;62.22;-299.73;331.53;53.4;37.62;60.31;100.84;17.70629603;-5.904584247;8.288331371;0.844885971;7.903683785
-70;TRIDENT;1286;590.44;4.06;32.39;37.97;0.01;1.42;0.53;1.52;14.9112;29.05;90.82;250.13;-110.21;80.22;-294.33;324.36;54.03;31.16;70.36;100.87;13.27836222;-9.625943074;-8.089910495;-0.824659582;11.67067941
-71;TRIDENT;1287;590.9;4.06;32.42;37.98;0.05;1.57;0.51;1.65;16.1865;104.98;125.05;250.13;-135.99;53.53;-310.82;343.47;59.74;24.32;79.8;100.92;9.73654099;-7.69961136;4.18767764;0.426878455;8.846834143
-76;TRIDENT;1288;591.36;4.06;32.44;37.97;-0.02;1.56;0.49;1.64;16.0884;-114.18;249.39;250.13;-114.25;95.06;-303.48;337.92;67.6;17.38;89.53;100.96;5.309776136;-9.623401858;-4.182153255;-0.426315317;10.77189525
-85;TRIDENT;1289;591.82;4.06;32.44;37.97;-0.04;1.47;0.46;1.54;15.1074;-243.44;215.1;;-137.19;74.52;-306.63;344.08;65.99;11.72;102.63;101.01;;-11.5429916;-4.173021178;-0.425384422;10.76979487
-96;TRIDENT;1290;592.28;4.06;32.47;37.98;-0.07;1.37;0.51;1.46;14.3226;-200.85;35.98;250.13;-112.6;97.31;-307.82;341.91;58;;;;;;;;
